stop_id,stop_code,stop_name,stop_desc,stop_lat,stop_lon,zone_id,stop_url,location_type,parent_station
AHG,,Ahasangonj,,24.62128,88.97661,,,0,
KOL,,Kolkata Chitpur,,22.601223,88.38411,,,0,
QSBA,,Kasba,,23.74027,91.15556,,,0,
MAI,,Maijdi Court,,22.86058,91.10547,,,0,
FNI,,Feni Junction,,23.013103,91.40318,,,0,
SHB,,Shahiji Bazar,,24.252785,91.38192,,,0,
PBT,,Parbatipur Junction,,25.648106,88.91783,,,0,
KLHI,,Kalukhali Junction,,23.768389,89.48051,,,0,
JS,,Jessore Junction,,23.170084,89.19075,,,0,
HL,,Hili,,25.278862,89.00724,,,0,
PDB,,Poradaha Junction,,23.862206,89.02804,,,0,
KCPR,,Chandpur Court,,23.225454,90.654976,,,0,
BOG,,Bogra,,24.84863,89.366646,,,0,
CTG,,Chittagong,,22.333963,91.82959,,,0,
MHZ,,Maijgaon,,24.685934,91.95241,,,0,
SDP,,Saidpur,,25.792562,88.89004,,,0,
GAI,,Gaibandha,,25.33231,89.542465,,,0,
DEW,,Dewangonj,,25.156956,89.75662,,,0,
KHL,,Kholahati,,25.65645,88.974945,,,0,
ISB,,Ishardi Bypass,,24.15515,89.057755,,,0,
GLB,,Goalanda Bazar,,23.723904,89.76413,,,0,
LKM,,Laksham Junction,,23.248684,91.12303,,,0,
NOP,,Nowapara,,24.179668,91.35683,,,0,
LAL,,Lalmonirhat Junction,,25.912626,89.44537,,,0,
AKA,,Akhaura,,23.871346,91.20588,,,0,
SAD,,Sadanandapur,,24.398678,89.68629,,,0,
ADG,,Alamdanga,,23.760376,88.935486,,,0,
AZPR,,Azampur,,23.892332,91.22056,,,0,
DIN,,Dinajpur,,25.624702,88.6324,,,0,
DOH,,Dohazari,,22.162228,92.069916,,,0,
KAS,,Kashiani,,23.23475,89.726456,,,0,
BAM,,Bamandanga,,25.532797,89.4442,,,0,
KUL,,Kuliarchar,,24.15109,90.92871,,,0,
CHr,,Chirirbandar,,25.647318,88.77973,,,0,
BAH,,Bahadurabad Ghat,,25.166174,89.7357,,,0,
JYR,,Joydevpur Junction,,23.997883,90.420006,,,0,
JAG,,Jagannathganj Ghat,,24.641743,89.80858,,,0,
FUL,,Fulbari,,25.507612,88.96569,,,0,
TAR,,Tarakandi,,24.686232,89.82469,,,0,
BYM,,Bheramara,,24.02029,88.99284,,,0,
BAD,,Badarganj,,25.707127,89.180824,,,0,
SHO,,Sholashohor,,22.368467,91.82658,,,0,
AZGR,,Azim Nagar,,24.204172,89.007996,,,0,
BRBE,,Baral Bridge,,24.215092,89.3816,,,0,
CHT,,Chatmohar,,24.188753,89.27557,,,0,
BCI,,Bhairab Bazar Junction,,24.050245,90.97842,,,0,
HPX,,Hararshpur,,24.016628,91.309875,,,0,
ISL,,Islampur Bazar,,25.0778,89.791626,,,0,
JML,,Jamalpur Junction,,24.916069,89.95118,,,0,
SRD,,Sardah,,24.337292,88.752525,,,0,
RJHI,,Rajshahi,,24.375004,88.60857,,,0,
DA,,Dhaka,,23.733072,90.42613,,,0,
JOI,,Jamtoil,,24.361269,89.66043,,,0,
KLNJ,,Khulna,,22.822636,89.55778,,,0,
ULP,,Ullapra,,24.291355,89.57387,,,0,
SNP,,Sonapur,,22.827335,91.10205,,,0,
PEY,,Pakshi,,24.071745,89.03923,,,0,
THA,,Thakurgaon,,26.039164,88.42677,,,0,
STU,,Santahar Junction,,24.8051,88.98618,,,0,
SON,,Sonaimuri,,23.044012,91.09864,,,0,
PAN,,Panchagarh,,26.329876,88.54181,,,0,
DACT,,Dhaka Cantonment,,23.815617,90.41044,,,0,
MCR,,Mukundahpur,,23.963621,91.264595,,,0,
NTE,,Natore,,24.409508,88.966064,,,0,
CLH,,Chilahati,,26.243298,88.79677,,,0,
MAD,,Madhukhali,,23.546537,89.630905,,,0,
NKT,,Nangolkot,,23.167732,91.198654,,,0,
KIS,,Kishoreganj,,24.43214,90.78729,,,0,
NAN,,Nandina,,24.867704,90.035904,,,0,
ASZ,,Ashuganj,,24.038034,91.00214,,,0,
BUR,,Burimari,,26.39607,88.93561,,,0,
PIR,,Pirgacha,,25.662136,89.40826,,,0,
SSJ,,Shaistaganj Junction,,24.27844,91.44992,,,0,
KAL,,Kalaura Junction,,24.522388,92.03683,,,0,
BRP,,Baharpur,,23.682693,89.56869,,,0,
ISH,,Ishardi Junction,,24.130268,89.06298,,,0,
MNK,,Manik Khali,,24.297937,90.84649,,,0,
RAN,,Rangpur,,25.728468,89.26399,,,0,
BBE,,Bangabandhu Setu East,,24.389095,89.82004,,,0,
TAGL,,Tangail,,24.273846,89.93772,,,0,
NAP,,Noapara,,23.033176,89.395515,,,0,
NZH,,Nazir Hat,,22.629362,91.78769,,,0,
MOH,,Mohanganj,,24.870756,90.97276,,,0,
SAR,,Sararchar,,24.220476,90.89862,,,0,
HAJ,,Hajiganj,,23.257626,90.848145,,,0,
CCY,,Kumarkhali,,23.860575,89.24103,,,0,
RPU,,Rahanpur,,24.820423,88.31945,,,0,
MGA,,Madhnagar,,24.50262,88.95992,,,0,
MBRG,,Mubarokganj,,23.401476,89.12389,,,0,
ACP,,Akkelpur,,24.964563,89.01597,,,0,
KSTC,,Kushtia Court,,23.907066,89.12829,,,0,
AUP,,Abdulpur Junction,,24.251884,88.976326,,,0,
MZRP,,Mirzapur,,24.10636,90.09917,,,0,
SJR,,Shamsher Nagar,,24.382933,91.90034,,,0,
MEL,,Melandaha Bazar,,24.978176,89.85342,,,0,
DSNH,,Darshana Halt,,23.529236,88.80988,,,0,
NPC,,Nilphamari,,25.94907,88.835976,,,0,
MEH,,Meher,,23.24464,90.94348,,,0,
SRG,,Srimongol,,24.306648,91.734985,,,0,
KHK,,Khoksha,,23.830885,89.30297,,,0,
GAC,,Gachihata,,24.341928,90.82438,,,0,
BHRA,,Bramhonbaria,,23.96674,91.10901,,,0,
CML,,Comilla,,23.462366,91.166916,,,0,
RB,,Rajbari,,23.7613,89.65174,,,0,
CHA,,Chasara,,23.624468,90.4983,,,0,
BAZ,,Bazra,,22.992079,91.10061,,,0,
PAG,,Pangsha,,23.786152,89.41715,,,0,
CHO,,Chowmuhani,,22.942926,91.120735,,,0,
KAU,,Kaunia Junction,,25.775787,89.41905,,,0,
MOCK,,Mouchak,,24.038513,90.28236,,,0,
BHG,,Bhatiapara Ghat,,23.213314,89.69728,,,0,
NTP,,Nather Patua,,23.11262,91.11513,,,0,
BAJ,,Bajitpur,,24.19941,90.9132,,,0,
SIR,,Sirajganj,,24.450117,89.705,,,0,
JAH,,Janali Hat,,22.395864,91.87195,,,0,
NRC,,Narsingdi,,23.93072,90.716515,,,0,
DABB,,Dhaka Bimanbander,,23.85202,90.408195,,,0,
BOA,,Boalmari Bazar,,23.389875,89.687675,,,0,
CO,,Chuadanga,,23.638039,88.85463,,,0,
BHA,,Bhanugach,,24.351828,91.84154,,,0,
SNT,,Sonotala,,25.044033,89.497086,,,0,
JOY,,Joypurhat,,25.098984,89.0261,,,0,
MYM,,Mymensingh Junction,,24.753273,90.4101,,,0,
CTU,,Chittagong University,,22.470682,91.79424,,,0,
CHI,,Chitosi Road,,23.235018,91.02983,,,0,
KOT,,Kotchadpur,,23.416275,89.013596,,,0,
MNT,,Mantala,,24.068573,91.34446,,,0,
SRB,,Sarishabari,,24.760832,89.840065,,,0,
GAR,,Gafargaon,,24.456823,90.5459,,,0,
DSNJ,,Darshana Junction,,23.526453,88.797226,,,0,
PIB,,Panchbibi,,25.188614,89.0216,,,0,
BARP,,Birampur,,25.396456,88.99481,,,0,
DOM,,Domar,,26.104637,88.81998,,,0,
CNBJ,,Nawabganj,,24.598835,88.28038,,,0,
SYT,,Sylhet,,24.881706,91.86702,,,0,
BON,,Bonarpara,,25.166569,89.524666,,,0,
